[
  {
    "id": "42d32dc3-d7bf-487b-901d-0e58584c1a7f",
    "restriction": "Bakeries",
    "country": "Westeros",
    "phoneNumber": "855-926-2746",
    "sundayClose": "6pm",
    "sundayOpen": "12pm",
    "saturdayClose": "8pm",
    "saturdayOpen": "9am",
    "fridayClose": "8pm",
    "fridayOpen": "9am",
    "thursdayClose": "8pm",
    "thursdayOpen": "9am",
    "wednesdayClose": "8pm",
    "wednesdayOpen": "9am",
    "tuesdayClose": "8pm",
    "tuesdayOpen": "9am",
    "mondayClose": "8pm",
    "mondayOpen": "9am",
    "longitude": -122.401858,
    "latitude": 37.797788,
    "image": "http://redstaryeast.com/wp-content/uploads/2014/10/bread-image-300x300.png",
    "zipCode": "38764",
    "state": "",
    "city": "Essos",
    "streetAddress": "800 Harbour Ave",
    "locationHint": "Port Syrio",
    "name": "Braavos Bakery",
    "ethnicity": "Italian"
  },
  {
    "id": "94fa54ab-72c2-40c7-85ee-491f2c9d023e",
    "restriction": "Coffee Shops",
    "country": "Westerland",
    "phoneNumber": "855-926-2746",
    "sundayClose": "6pm",
    "sundayOpen": "12pm",
    "saturdayClose": "8pm",
    "saturdayOpen": "9am",
    "fridayClose": "8pm",
    "fridayOpen": "9am",
    "thursdayClose": "8pm",
    "thursdayOpen": "9am",
    "wednesdayClose": "8pm",
    "wednesdayOpen": "9am",
    "tuesdayClose": "8pm",
    "tuesdayOpen": "9am",
    "mondayClose": "8pm",
    "mondayOpen": "9am",
    "longitude": -58.3788027544727,
    "latitude": -34.6049956875424,
    "image": "http://hddfhm.com/images/clipart-coffee-free-12.png",
    "zipCode": "00128",
    "state": "",
    "city": "Westerland",
    "streetAddress": "1 Lannister Lane",
    "locationHint": "Lannisport",
    "name": "Casterly Rock Coffee",
    "ethnicity": "American"
  },
  {
    "id": "affad0c3-172e-496c-9697-665d48bb18f8",
    "restriction": "Specialty Shop",
    "country": "Seven Kingdoms",
    "phoneNumber": "855-926-2746",
    "sundayClose": "6pm",
    "sundayOpen": "12pm",
    "saturdayClose": "8pm",
    "saturdayOpen": "9am",
    "fridayClose": "8pm",
    "fridayOpen": "9am",
    "thursdayClose": "8pm",
    "thursdayOpen": "9am",
    "wednesdayClose": "8pm",
    "wednesdayOpen": "9am",
    "tuesdayClose": "8pm",
    "tuesdayOpen": "9am",
    "mondayClose": "8pm",
    "mondayOpen": "9am",
    "longitude": -0.139453173418381,
    "latitude": 51.5171566022088,
    "image": "http://www.free-icons-download.net/images/donuts-icons-45959.png",
    "zipCode": "62644",
    "state": "",
    "city": "Speardon",
    "streetAddress": "10 Blackmont Hill",
    "locationHint": "South of Prince's Park",
    "name": "Dorne Donuts",
    "ethnicity": "American"
  },
  {
    "id": "d9064e62-df2e-4d16-ba26-bddc06a9c4a2",
    "restriction": "",
    "country": "Westerland",
    "phoneNumber": "212-555-2746",
    "sundayClose": "6pm",
    "sundayOpen": "12pm",
    "saturdayClose": "8pm",
    "saturdayOpen": "9am",
    "fridayClose": "8pm",
    "fridayOpen": "9am",
    "thursdayClose": "8pm",
    "thursdayOpen": "9am",
    "wednesdayClose": "8pm",
    "wednesdayOpen": "9am",
    "tuesdayClose": "8pm",
    "tuesdayOpen": "9am",
    "mondayClose": "8pm",
    "mondayOpen": "9am",
    "longitude": 10.1875958,
    "latitude": 56.1721407,
    "image": "http://cdn.onlinewebfonts.com/svg/img_483248.png",
    "zipCode": "01895",
    "state": "",
    "city": "Oldtown",
    "streetAddress": "77 Sept Terrace",
    "locationHint": "Best Sweets in Hightower",
    "name": "Sept Sweets",
    "ethnicity": "French"
  },
  {
    "id": "d9064e62-df2e-4d16-ba26-bddc06a9c4a3",
    "restriction": "",
    "country": "USA",
    "phoneNumber": "212-555-2746",
    "sundayClose": "6pm",
    "sundayOpen": "12pm",
    "saturdayClose": "8pm",
    "saturdayOpen": "9am",
    "fridayClose": "8pm",
    "fridayOpen": "9am",
    "thursdayClose": "8pm",
    "thursdayOpen": "9am",
    "wednesdayClose": "8pm",
    "wednesdayOpen": "9am",
    "tuesdayClose": "8pm",
    "tuesdayOpen": "9am",
    "mondayClose": "8pm",
    "mondayOpen": "9am",
    "longitude": 40.7158,
    "latitude": 73.9970,
    "image": "https://d30y9cdsu7xlg0.cloudfront.net/png/8078-200.png",
    "zipCode": "07824",
    "state": "",
    "city": "New York",
    "streetAddress": "88 Tribeca Rd",
    "locationHint": "Best Noodles in Chinatown",
    "name": "Noodle Bar",
    "ethnicity": "Chinese"
  },
  {
    "id": "d9064e62-df2e-4d16-ba26-bddc06a9c4a4",     "restriction": "",     "country": "United States of America",     "phoneNumber": "588-926-2746",     "sundayClose": "6pm",     "sundayOpen": "12pm",     "saturdayClose": "8pm",     "saturdayOpen": "9am",     "fridayClose": "8pm",     "fridayOpen": "9am",     "thursdayClose": "8pm",     "thursdayOpen": "9am",     "wednesdayClose": "8pm",     "wednesdayOpen": "9am",     "tuesdayClose": "8pm",     "tuesdayOpen": "9am",     "mondayClose": "8pm",     "mondayOpen": "9am",     "longitude": 32.7765,     "latitude": 79.9311,     "image": "http://pluspng.com/img-png/nachos-png-black-and-white-nachos-food-drink-cook-kitchen-icon-512.png",     "zipCode": "01895",     "state": "",     "city": "Charleston",     "streetAddress": "2 Johnson Street",     "locationHint": "Just South of Harold Square",     "name": "Toto's Pitas",
    "ethnicity": "Mediterranean"
  },
  {
    "id": "d9064e62-df2e-4d16-ba26-bddc06a9c4a5",     "restriction": "",     "country": "United States of America",     "phoneNumber": "588-926-2746",     "sundayClose": "6pm",     "sundayOpen": "12pm",     "saturdayClose": "8pm",     "saturdayOpen": "9am",     "fridayClose": "8pm",     "fridayOpen": "9am",     "thursdayClose": "8pm",     "thursdayOpen": "9am",     "wednesdayClose": "8pm",     "wednesdayOpen": "9am",     "tuesdayClose": "8pm",     "tuesdayOpen": "9am",     "mondayClose": "8pm",     "mondayOpen": "9am",     "longitude": 35.0844,     "latitude": 106.6504,     "image": "http://cdn3.iconfinder.com/data/icons/food-from-around-the-world/512/tacos-512.png",
    "zipCode": "87106",     "state": "",     "city": "Albuquerque",     "streetAddress": "100-8 Highway 66",     "locationHint": "Best Eats on the Road",     "name": "Route 66 Diner",     "ethnicity": "Mexican"
  }
]